City,Lat,Lng,Max Temp,Humidity,Cloudiness,Wind Speed,Country,Date
Bluff,-46.6,168.33,45.3,79,10,2.62,NZ,1603714706
Saint Paul Harbor,57.79,-152.41,48.2,74,90,17.22,US,1603714706
Jamestown,42.1,-79.24,45.0,100,90,3.36,US,1603714611
Cockburn Town,21.46,-71.14,83.35,80,90,19.84,TC,1603714707
Rikitea,-23.12,-134.97,75.07,84,100,19.62,PF,1603714707
Port Lincoln,-34.73,135.87,54.82,79,16,11.7,AU,1603714707
Tokur,53.13,132.9,26.13,90,48,2.21,RU,1603714708
Kristianstad,56.03,14.15,54.0,93,75,5.82,SE,1603714708
Boca do Acre,-8.75,-67.4,78.62,83,48,3.31,BR,1603714433
Ushuaia,-54.8,-68.3,44.6,75,75,9.62,AR,1603714708
Ribeira Grande,38.52,-28.7,69.8,83,40,17.22,PT,1603714708
Marawi,8.0,124.29,82.0,86,100,1.01,PH,1603714708
Dikson,73.51,80.55,15.76,97,100,12.1,RU,1603714708
Atuona,-9.8,-139.03,78.53,76,4,23.11,PF,1603714709
Punta Arenas,-53.15,-70.92,51.01,81,75,9.17,CL,1603714595
Lompoc,34.64,-120.46,50.0,93,1,3.51,US,1603714709
Carauari,-4.88,-66.9,78.76,77,97,0.92,BR,1603714534
Guerrero Negro,27.98,-114.06,68.49,64,91,16.17,MX,1603714710
East London,-33.02,27.91,64.4,93,75,16.11,ZA,1603714710
Grindavik,63.84,-22.43,41.0,75,0,8.05,IS,1603714710
Olovyannaya,50.95,115.57,29.59,86,94,19.95,RU,1603714710
Tasiilaq,65.61,-37.64,33.8,59,100,24.16,GL,1603714710
Ubinskoye,55.31,79.68,39.49,94,100,10.31,RU,1603714710
Mandeville,18.04,-77.51,77.0,88,20,3.36,JM,1603714711
Hobart,-42.88,147.33,51.8,57,75,5.82,AU,1603714668
Nhamundá,-2.19,-56.71,82.22,75,39,3.36,BR,1603714711
Busselton,-33.65,115.33,63.0,65,1,6.76,AU,1603714712
Hithadhoo,-0.6,73.08,83.82,66,0,7.18,MV,1603714712
Fortuna,40.6,-124.16,41.0,52,1,9.17,US,1603714712
Saint-Philippe,-21.36,55.77,75.2,78,75,4.7,RE,1603714712
Qaanaaq,77.48,-69.36,7.39,71,71,8.19,GL,1603714712
Albany,42.6,-73.97,42.01,88,100,8.52,US,1603714712
Vuktyl,63.86,57.31,22.03,97,18,5.03,RU,1603714712
Isangel,-19.55,169.27,72.57,78,3,10.22,VU,1603714712
Ponta do Sol,32.67,-17.1,69.8,73,40,11.41,PT,1603714713
Kapaa,22.08,-159.32,78.4,76,28,4.14,US,1603714612
Beringovskiy,63.05,179.32,30.49,93,0,2.95,RU,1603714713
Geraldton,-28.77,114.6,68.0,77,0,9.17,AU,1603714714
Butaritari,3.07,172.79,81.46,69,100,9.98,KI,1603714714
Tuatapere,-46.13,167.68,45.43,75,41,1.41,NZ,1603714714
Amānganj,24.43,80.03,82.44,37,32,5.37,IN,1603714714
Leningradskiy,69.38,178.42,25.41,97,100,5.75,RU,1603714714
Tura,25.52,90.22,72.07,93,24,2.08,IN,1603714569
Cabo San Lucas,22.89,-109.91,71.01,72,4,1.99,MX,1603714714
New Norfolk,-42.78,147.06,51.01,63,11,1.7,AU,1603714714
Yellowknife,62.46,-114.35,28.4,79,90,13.87,CA,1603714502
Hermanus,-34.42,19.23,75.0,66,96,8.01,ZA,1603714715
Huarmey,-10.07,-78.15,64.42,80,82,5.41,PE,1603714775
Port Alfred,-33.59,26.89,66.7,84,98,27.02,ZA,1603714775
Fort Nelson,58.81,-122.7,24.8,73,90,2.24,CA,1603714501
George Town,5.41,100.34,80.6,78,20,2.82,MY,1603714775
Kapuskasing,49.42,-82.43,21.2,92,75,4.7,CA,1603714775
Rizhao,35.43,119.46,59.72,65,0,4.07,CN,1603714775
Winslow,35.02,-110.7,35.6,93,90,11.41,US,1603714776
Pisco,-13.7,-76.22,62.01,87,38,3.36,PE,1603714776
Chokurdakh,70.63,147.92,10.94,96,85,13.98,RU,1603714776
Portland,45.52,-122.68,36.0,66,1,2.86,US,1603714685
Barrow,71.29,-156.79,15.8,78,1,6.93,US,1603714776
Normandin,48.83,-72.53,33.8,59,90,6.93,CA,1603714776
Ancud,-41.87,-73.82,46.99,100,90,13.87,CL,1603714776
Taiyuan,37.87,112.56,62.6,21,0,6.71,CN,1603714776
Tarata,-17.62,-66.02,68.0,45,82,1.36,BO,1603714777
Yelizovo,53.19,158.38,41.0,100,75,6.71,RU,1603714777
Kruisfontein,-34.0,24.73,64.99,94,100,4.0,ZA,1603714777
Port Elizabeth,-33.92,25.57,62.6,100,90,18.34,ZA,1603714777
Mataura,-46.19,168.86,37.49,93,18,1.07,NZ,1603714777
Thompson,55.74,-97.86,23.0,85,90,5.82,CA,1603714501
Sola,-13.88,167.55,80.73,80,51,19.75,VU,1603714777
Jiaojiang,28.68,121.44,66.0,71,28,5.99,CN,1603714777
Riberalta,-10.98,-66.1,77.0,94,40,5.82,BO,1603714777
Kitui,-1.37,38.01,82.8,41,81,9.42,KE,1603714778
Pevek,69.7,170.31,25.2,98,100,4.99,RU,1603714778
Tuktoyaktuk,69.45,-133.04,4.57,94,66,7.52,CA,1603714778
Muravlenko,63.79,74.52,18.41,97,99,15.99,RU,1603714778
Maţāy,28.42,30.78,87.01,28,0,7.74,EG,1603714572
Lagoa,39.05,-27.98,66.92,82,26,24.02,PT,1603714778
Brae,60.4,-1.35,51.8,81,20,16.11,GB,1603714778
Severo-Kuril'sk,50.68,156.12,42.57,80,67,4.83,RU,1603714778
Sitka,57.05,-135.33,53.6,81,90,10.29,US,1603714779
Belaya Gora,68.53,146.42,5.41,89,31,6.98,RU,1603714779
Bengkulu,-3.8,102.27,78.78,77,100,4.36,ID,1603714681
Cayenne,4.93,-52.33,82.4,83,75,3.36,GF,1603714779
Lehigh Acres,26.63,-81.62,75.2,88,20,4.7,US,1603714563
Road Town,18.42,-64.62,84.0,83,40,9.17,VG,1603714683
Lexington,37.99,-84.48,52.0,93,90,4.7,US,1603714681
Cape Town,-33.93,18.42,78.8,41,0,10.29,ZA,1603714586
Nanortalik,60.14,-45.24,33.75,94,100,16.49,GL,1603714780
Tres Picos,15.87,-93.53,77.0,71,59,5.1,MX,1603714780
Coahuayana Viejo,18.73,-103.68,76.91,89,28,2.01,MX,1603714780
Sambava,-14.27,50.17,79.39,65,8,12.44,MG,1603714780
Mar del Plata,-38.0,-57.56,57.99,87,20,5.82,AR,1603714500
Longyearbyen,78.22,15.64,24.8,79,20,6.93,SJ,1603714780
Bredasdorp,-34.53,20.04,71.6,64,40,20.8,ZA,1603714780
Ulagan,50.63,87.96,31.91,83,78,2.84,RU,1603714840
Qaqortoq,60.72,-46.03,44.6,30,75,23.04,GL,1603714591
Lázaro Cárdenas,17.96,-102.2,77.43,86,12,4.38,MX,1603714841
Hilo,19.73,-155.09,73.4,73,40,5.82,US,1603714841
Yulara,-25.24,130.99,73.4,20,0,6.93,AU,1603714841
Iskateley,67.68,53.15,15.6,93,14,3.89,RU,1603714841
Kapit,2.02,112.93,74.77,93,100,2.08,MY,1603714841
Upernavik,72.79,-56.15,15.17,79,69,5.68,GL,1603714842
Doha,25.29,51.53,89.01,62,20,9.17,QA,1603714549
Vallenar,-28.57,-70.76,72.05,21,0,4.74,CL,1603714842
Waterloo,43.47,-80.52,36.0,93,90,4.7,CA,1603714733
Lebu,-37.62,-73.65,49.46,72,51,2.91,CL,1603714842
Vaini,-21.2,-175.2,71.6,94,75,9.17,TO,1603714843
Ocós,14.51,-92.19,75.2,94,90,5.86,GT,1603714843
West Chester,39.96,-75.61,55.0,93,90,6.22,US,1603714832
Inuvik,68.35,-133.72,12.2,92,90,10.29,CA,1603714843
Enshi,30.3,109.48,60.66,65,94,0.81,CN,1603714843
Talnakh,69.49,88.4,8.6,84,40,4.47,RU,1603714843
Mahébourg,-20.41,57.7,78.8,65,40,14.99,MU,1603714834
Saldanha,-33.01,17.94,75.2,47,51,11.41,ZA,1603714844
Pierre,44.37,-100.35,6.8,77,1,4.7,US,1603714844
Saint-Pierre,-21.34,55.48,75.2,78,75,4.7,RE,1603714603
Kaitangata,-46.28,169.85,48.99,77,45,3.53,NZ,1603714844
Lata,40.16,-8.33,62.01,67,60,1.99,PT,1603714844
Ouallam,14.32,2.09,96.75,9,31,7.87,NE,1603714844
Airai,-8.93,125.41,64.17,100,97,1.57,TL,1603714825
Hualmay,-11.1,-77.61,63.79,81,84,4.34,PE,1603714844
Nouakchott,18.09,-15.98,100.4,9,10,16.11,MR,1603714592
Bratsk,56.13,101.61,26.6,68,40,8.95,RU,1603714844
Vila,42.03,-8.16,52.0,90,68,8.99,PT,1603714845
Puerto Ayora,-0.74,-90.35,66.0,93,99,7.0,EC,1603714845
Otegen Batyra,43.43,77.02,57.2,33,20,6.71,KZ,1603714845
Natchez,31.56,-91.4,60.8,87,90,3.36,US,1603714845
Lüderitz,-26.65,15.16,71.8,52,2,26.13,NA,1603714845
Inhambane,-23.86,35.38,84.2,70,40,12.75,MZ,1603714682
San Cristobal,7.77,-72.22,77.0,78,40,4.7,VE,1603714846
Burnie,-41.07,145.92,48.99,74,16,3.0,AU,1603714846
Mago,53.25,140.18,33.76,90,73,4.43,RU,1603714846
Hinnerup,56.27,10.06,53.6,87,100,4.7,DK,1603714846
Dudinka,69.41,86.18,8.6,84,40,4.47,RU,1603714846
Cherskiy,68.75,161.3,7.12,95,45,2.62,RU,1603714846
Saskylakh,71.92,114.08,4.33,92,99,7.76,RU,1603714847
Paita,-5.09,-81.11,64.4,88,0,14.99,PE,1603714847
Korla,41.76,86.15,50.45,42,64,5.73,CN,1603714847
Constitución,-35.33,-72.42,53.62,57,2,8.14,CL,1603714908
Cesvaine,56.97,26.32,51.75,78,92,10.98,LV,1603714908
Andros Town,24.7,-77.77,77.0,94,0,4.7,BS,1603714908
Orlik,52.52,99.83,14.45,88,66,5.14,RU,1603714872
Elmina,5.09,-1.35,81.57,83,90,10.98,GH,1603714909
Tiksi,71.69,128.87,5.41,91,99,19.26,RU,1603714909
Komsomolets,53.75,62.07,35.69,85,100,24.79,KZ,1603714909
Fairbanks,64.84,-147.72,33.8,97,90,12.75,US,1603714854
Ostrovnoy,68.05,39.51,30.47,96,100,19.42,RU,1603714909
Arrondissement d'Arcachon,44.59,-1.05,57.2,81,85,12.75,FR,1603714909
Dustlik,40.52,68.04,68.25,24,76,1.54,UZ,1603714909
Guadalupe y Calvo,26.1,-106.97,47.61,71,0,4.36,MX,1603714910
Alcañiz,41.05,-0.13,57.99,53,23,15.01,ES,1603714910
Padang,-0.95,100.35,79.88,73,94,1.83,ID,1603714910
College,64.86,-147.8,33.8,86,90,12.75,US,1603714910
Nome,64.5,-165.41,33.8,80,75,5.82,US,1603714911
Gorontalo,0.54,123.06,78.03,83,86,2.48,ID,1603714911
Urengoy,65.97,78.37,5.38,94,8,9.73,RU,1603714911
Cassilândia,-19.11,-51.73,84.34,62,35,5.08,BR,1603714911
Bereda,43.27,-7.54,55.0,75,51,11.01,ES,1603714912
Ormara,25.21,64.64,79.7,52,0,8.08,PK,1603714912
Harper,4.38,-7.72,80.87,82,84,8.03,LR,1603714912
Grand Gaube,-20.01,57.66,77.0,70,60,11.99,MU,1603714913
Atar,20.52,-13.05,97.92,10,22,12.37,MR,1603714913
Katangli,51.71,143.23,39.2,91,100,17.52,RU,1603714913
Bethel,41.37,-73.41,46.0,93,90,4.7,US,1603714913
Tigil',57.8,158.67,37.6,78,99,5.57,RU,1603714913
Pitogo,13.78,122.09,78.66,88,100,11.21,PH,1603714914
Souillac,-20.52,57.52,78.8,65,40,14.99,MU,1603714914
San Diego,32.72,-117.16,62.6,77,75,3.36,US,1603714914
Neftçala,39.37,49.25,70.0,53,100,11.23,AZ,1603714914
Lovozero,68.0,35.01,32.22,96,100,18.54,RU,1603714914
Pemba,-12.97,40.52,84.2,66,40,14.99,MZ,1603714915
Coquimbo,-29.95,-71.34,53.6,76,0,1.12,CL,1603714695
Dāmghān,36.17,54.35,72.84,20,52,4.94,IR,1603714915
Bouna,9.27,-3.0,96.98,32,1,1.97,CI,1603714915
Vanimo,-2.67,141.3,76.89,83,100,4.07,PG,1603714915
Hong Kong,22.29,114.16,77.0,79,0,1.99,HK,1603714741
Ust'-Kut,56.79,105.77,19.35,93,71,2.57,RU,1603714915
Avarua,-21.21,-159.78,73.4,73,100,14.99,CK,1603714916
Dzaoudzi,-12.79,45.27,86.0,62,20,9.17,YT,1603714916
Alofi,-19.06,-169.92,73.49,89,97,17.65,NU,1603714916
Carnarvon,-24.87,113.63,71.6,78,0,24.16,AU,1603714916
Faanui,-16.48,-151.75,79.59,76,67,8.28,PF,1603714852
Narsaq,60.92,-46.05,44.6,30,75,23.04,GL,1603714916
Arraial do Cabo,-22.97,-42.03,73.4,88,75,4.7,BR,1603714913
Te Anau,-45.42,167.72,38.93,88,45,3.74,NZ,1603714916
Kavaratti,10.57,72.64,83.01,71,32,6.58,IN,1603714977
Oriximiná,-1.77,-55.87,82.11,71,42,3.18,BR,1603714977
Mutare,-18.97,32.67,84.52,25,0,10.07,ZW,1603714977
Newport,51.59,-3.0,55.99,92,59,1.99,GB,1603714977
Richards Bay,-28.78,32.04,76.42,63,83,11.59,ZA,1603714977
Caravelas,-17.71,-39.25,78.75,86,87,9.19,BR,1603714931
Crotone,39.09,17.12,69.8,60,0,16.11,IT,1603714977
Glencoe,-28.18,30.15,77.67,40,60,12.24,ZA,1603714978
Freeport,40.66,-73.58,53.01,93,90,9.17,US,1603714683
Kahului,20.89,-156.47,75.2,69,20,2.73,US,1603714978
Kamloops,50.67,-120.32,24.8,92,90,5.82,CA,1603714978
Linxia Chengguanzhen,35.6,103.21,39.63,82,100,5.86,CN,1603714978
Ukiah,39.15,-123.21,44.6,30,1,4.25,US,1603714978
Praia,14.92,-23.51,86.0,62,75,25.28,CV,1603714900
Vardø,70.37,31.11,35.6,95,75,25.28,NO,1603714979
Homer,59.64,-151.55,39.2,93,90,6.93,US,1603714979
Wad Rāwah,15.16,33.14,102.99,15,0,7.38,SD,1603714979
Kemijärvi,66.71,27.43,39.15,97,100,5.12,FI,1603714979
Kabo,7.7,18.63,94.35,43,34,2.26,CF,1603714979
Cherdyn',60.4,56.48,26.19,95,100,8.03,RU,1603714979
Norwich,52.63,1.3,54.0,81,75,11.41,GB,1603714979
Songjianghe,42.19,127.48,40.53,70,70,4.97,CN,1603714979
Maningrida,-12.07,134.27,81.36,70,96,6.08,AU,1603714980
Tongliao,43.61,122.27,48.27,51,34,10.8,CN,1603714980
Pak Thong Chai,14.72,102.03,71.6,100,75,3.36,TH,1603714980
Kumul,42.8,93.45,46.08,47,28,7.63,CN,1603714841
Lázně Bělohrad,50.43,15.58,55.0,93,100,5.99,CZ,1603714980
Castro,-24.79,-50.01,67.6,77,62,9.6,BR,1603714860
Nishihara,26.18,127.76,75.2,64,20,12.75,JP,1603714832
Tanout,14.97,8.89,89.31,12,58,9.57,NE,1603714980
Mildura,-34.2,142.15,55.4,87,90,3.36,AU,1603714980
Buraidah,26.33,43.98,89.6,14,0,5.82,SA,1603714825
Coro,11.4,-69.67,80.38,79,70,12.28,VE,1603714981
Mīnāb,27.15,57.08,91.4,19,0,11.41,IR,1603714981
Bubaque,11.28,-15.83,83.12,76,0,4.56,GW,1603714981
Santa Isabel Rio Negro,-0.41,-65.02,77.14,93,100,0.65,BR,1603714982
Salalah,17.02,54.09,84.2,51,0,8.05,OM,1603714982
Sirte,31.21,16.59,77.81,52,41,7.67,LY,1603714982
Asău,46.43,26.4,55.99,94,92,3.76,RO,1603714982
Quixadá,-4.97,-39.02,81.97,60,100,5.93,BR,1603714982
Karratha,-20.74,116.85,72.82,79,35,16.26,AU,1603714685
Nikolskoye,59.7,30.79,50.0,87,90,8.95,RU,1603714983
Khovd,48.01,91.64,30.07,74,7,1.03,MN,1603714983
Codrington,-38.27,141.97,50.16,70,22,13.38,AU,1603714880
Eyl,7.98,49.82,82.47,61,62,16.11,SO,1603714983
Solnechnyy,50.72,136.63,33.96,73,0,2.39,RU,1603714983
Kindu,-2.95,25.95,89.15,48,40,4.63,CD,1603714983
Novikovo,51.15,37.89,55.15,60,54,4.25,RU,1603714983
Clyde River,70.47,-68.59,12.2,78,90,8.05,CA,1603715044
Cavaillon,43.83,5.04,60.8,62,0,16.11,FR,1603715044
Velsk,61.07,42.1,33.06,89,98,3.53,RU,1603715044
Nemuro,43.32,145.57,50.86,75,83,9.78,JP,1603715044
Chui,-33.7,-53.46,67.64,94,96,3.2,UY,1603715044
Aksarka,66.56,67.8,9.52,96,100,11.18,RU,1603715044
Salina,38.84,-97.61,23.0,79,90,18.34,US,1603715045
Itaparica,-12.89,-38.68,80.6,78,75,6.93,BR,1603715045
Havelock,34.88,-76.9,60.01,93,90,10.29,US,1603714963
Nioro,13.35,-15.75,95.63,40,0,0.83,GM,1603715045
Sandūr,15.1,76.55,79.93,66,23,8.14,IN,1603715045
Kaunas,54.9,23.9,53.6,81,90,10.29,LT,1603714805
Port Macquarie,-31.43,152.92,62.01,76,65,1.99,AU,1603715046
Mount Gambier,-37.83,140.77,50.0,81,36,11.41,AU,1603715046
Whitehorse,60.72,-135.05,28.4,92,90,26.4,CA,1603714956
Kamenka,51.32,42.77,53.01,79,23,6.69,RU,1603715046
Carutapera,-1.2,-46.02,86.22,63,60,7.87,BR,1603715046
Wau,7.7,28.0,94.23,44,99,1.39,SS,1603715047
Mananara,-16.17,49.77,80.02,60,3,8.32,MG,1603715047
Provideniya,64.38,-173.3,30.31,93,73,5.08,RU,1603715047
Nabīnagar,23.89,90.97,82.4,83,15,5.86,BD,1603715047
Kieta,-6.22,155.63,79.61,74,100,1.5,PG,1603715047
Mehamn,71.04,27.85,33.8,80,20,23.04,NO,1603715047
Feijó,-8.16,-70.35,78.22,84,32,3.18,BR,1603715047
Manchester,53.48,-2.24,53.01,87,99,13.87,GB,1603715047
Makkah al Mukarramah,21.43,39.83,96.53,28,0,14.03,SA,1603715047
Chicama,-7.84,-79.15,65.41,77,95,2.15,PE,1603715048
Kampene,-3.6,26.67,88.11,52,33,3.76,CD,1603715048
Kovdor,67.57,30.48,34.54,96,100,5.93,RU,1603715048
Sabang,5.89,95.32,82.67,77,84,16.69,ID,1603715048
Juba,4.85,31.58,88.79,50,100,3.78,SS,1603715048
Inta,66.03,60.17,15.76,94,19,9.17,RU,1603715048
Hobyo,5.35,48.53,82.71,69,34,8.43,SO,1603715048
Carnot,4.94,15.87,87.28,57,97,2.35,CF,1603715048
Mount Isa,-20.73,139.5,71.6,49,75,13.87,AU,1603714827
Hat Yai,7.01,100.48,78.8,100,40,4.7,TH,1603715049
Aklavik,68.22,-135.01,12.2,92,90,10.29,CA,1603715049
Guane,22.2,-84.09,78.84,88,87,10.2,CU,1603715049
Hay River,60.82,-115.8,21.2,85,20,11.41,CA,1603715049
Port Blair,11.67,92.75,81.18,78,93,3.36,IN,1603714868
Okhotsk,59.38,143.3,30.18,86,0,20.07,RU,1603715050
Bambous Virieux,-20.34,57.76,78.8,65,40,14.99,MU,1603714867
Mondragone,41.11,13.89,68.0,68,75,10.67,IT,1603715050
Hasaki,35.73,140.83,57.2,71,20,2.24,JP,1603715050
Strausberg,52.58,13.89,60.01,76,99,8.46,DE,1603715050
Haileybury,47.45,-79.64,30.2,100,90,8.05,CA,1603715110
Zavetnoye,47.12,43.89,57.94,46,72,6.76,RU,1603715110
Amga,60.9,131.96,15.58,91,100,2.37,RU,1603715110
Khatanga,71.97,102.5,3.42,94,93,9.28,RU,1603715111
Vila Franca do Campo,37.72,-25.43,66.2,93,75,14.99,PT,1603714858
Zhigansk,66.77,123.37,-0.67,92,100,11.45,RU,1603715111
Pitimbu,-7.47,-34.81,82.4,74,40,9.17,BR,1603715111
Russell,32.35,-85.2,66.2,100,90,4.68,US,1603715111
Buala,-8.14,159.59,80.26,78,81,2.77,SB,1603715111
Kiryat Gat,31.61,34.76,84.0,40,0,4.0,IL,1603715111
Ballina,-28.87,153.57,66.99,93,40,1.12,AU,1603715112
São João do Paraíso,-15.31,-42.01,76.24,73,97,7.47,BR,1603715112
Pemangkat,1.17,108.97,77.86,86,100,12.59,ID,1603715112
Caucayá,-0.19,-74.78,74.07,96,95,2.35,CO,1603715112
Tautira,-17.73,-149.15,77.0,88,75,6.93,PF,1603715112
Annaberg-Buchholz,50.58,13.01,57.0,71,100,4.59,DE,1603715112
Beloha,-25.17,45.05,90.86,29,0,10.78,MG,1603715112
Vredendal,-31.67,18.5,82.62,33,0,14.32,ZA,1603715113
Rancho Santa Margarita,33.64,-117.6,59.0,12,24,4.0,US,1603715113
Dauriya,49.93,116.87,29.91,88,98,21.81,RU,1603715113
Vao,-22.67,167.48,72.3,81,44,15.7,NC,1603715113
Atasū,48.68,71.64,51.84,43,100,17.92,KZ,1603715113
Cap Malheureux,-19.98,57.61,75.99,70,51,11.99,MU,1603715113
Djibouti,11.5,42.5,91.4,38,20,9.17,DJ,1603715113
Malakal,9.53,31.66,94.32,41,57,1.57,SS,1603715114
Itainópolis,-7.45,-41.48,82.42,62,93,4.16,BR,1603715114
Lorengau,-2.02,147.27,79.97,76,89,2.15,PG,1603715114
Laas,46.62,10.7,53.01,100,90,14.99,IT,1603715114
Cidreira,-30.18,-50.21,72.3,78,64,21.72,BR,1603715114
La Baule-Escoublac,47.29,-2.36,59.0,67,20,16.11,FR,1603715114
Lola,7.8,-8.53,88.05,41,0,4.81,GN,1603715114
Ust-Tsilma,65.44,52.15,18.19,97,63,3.18,RU,1603715114
Nicoya,10.15,-85.45,75.2,100,0,3.36,CR,1603715115
Dukhovshchina,55.19,32.41,48.67,81,98,8.16,RU,1603715115
Plouzané,48.38,-4.62,55.4,76,61,18.34,FR,1603715115
Tangshan,39.63,118.18,61.79,31,0,8.59,CN,1603714907
Kavieng,-2.57,150.8,83.41,70,100,6.85,PG,1603715115
Camacha,33.08,-16.33,69.8,68,75,10.29,PT,1603715115
Domoni,-12.26,44.53,80.28,70,60,5.95,KM,1603715115
Praia da Vitória,38.73,-27.07,73.4,69,40,11.27,PT,1603715116
Torbay,47.67,-52.73,39.0,59,20,19.46,CA,1603714833
Itupiranga,-5.13,-49.33,82.4,78,20,5.82,BR,1603715116
Plastun,44.76,136.29,40.73,75,0,6.02,RU,1603715116
Mareeba,-17.0,145.43,80.6,78,75,5.82,AU,1603715116
Matara,5.95,80.54,83.03,72,11,10.42,LK,1603715116
Baoding,38.85,115.49,62.47,34,4,2.42,CN,1603715116
Aconibe,1.3,10.94,78.15,87,87,2.95,GQ,1603715116
Jalu,29.03,21.55,82.98,34,1,5.59,LY,1603715177
Norman Wells,65.28,-126.83,21.2,92,90,4.7,CA,1603714884
Waingapu,-9.66,120.26,82.15,72,80,2.51,ID,1603715178
Felanitx,39.47,3.15,66.2,48,20,23.04,ES,1603715178
Emba,48.83,58.14,46.47,55,80,21.83,KZ,1603715179
Hurghada,27.26,33.81,89.6,38,0,9.17,EG,1603715048
Haines Junction,60.75,-137.51,29.12,95,100,3.49,CA,1603715179
Langxiang,46.95,128.88,38.17,78,91,2.13,CN,1603715179
Rwamagana,-1.95,30.43,71.6,73,75,8.05,RW,1603715179
Aksu,41.12,80.26,53.67,37,19,4.74,CN,1603715179
Cumana,10.46,-64.18,80.13,73,66,7.63,VE,1603715180
Maceió,-9.67,-35.74,86.0,62,75,5.82,BR,1603715180
Imeni Poliny Osipenko,52.42,136.49,32.07,86,0,0.94,RU,1603715180
Pinega,64.7,43.39,22.15,97,55,4.27,RU,1603715180
Chaozhou,23.67,116.64,75.2,69,0,6.71,CN,1603715181
Nālūt,30.33,10.85,82.72,15,0,7.99,LY,1603715181
San Juan,-31.54,-68.54,63.1,35,0,4.34,AR,1603715144
Sancti Spíritus,21.93,-79.44,73.78,94,100,9.33,CU,1603715181
Umm Kaddadah,13.6,26.69,92.41,14,0,10.02,SD,1603715181
Dunedin,-45.87,170.5,48.99,77,87,3.76,NZ,1603715181
Bakchar,57.02,82.07,36.18,98,100,5.06,RU,1603715182
Goderich,43.75,-81.72,39.99,79,100,8.55,CA,1603715182
Ibrā’,22.69,58.53,90.95,11,0,8.48,OM,1603715182
Palmer,42.16,-72.33,45.0,93,90,5.82,US,1603715183
Gadung,6.8,124.02,81.7,70,100,3.69,PH,1603715183
Petropavlovsk-Kamchatskiy,53.05,158.65,41.0,100,75,4.47,RU,1603715183
Sibu,2.3,111.82,75.2,94,40,3.36,MY,1603715022
Elmira,42.09,-76.81,46.4,93,90,5.95,US,1603715129
Meulaboh,4.14,96.13,80.11,77,99,1.9,ID,1603715183
Nadym,65.53,72.52,11.46,95,82,11.59,RU,1603715183
Kortkeros,61.81,51.58,30.2,86,90,4.47,RU,1603715183
Kropotkin,45.44,40.58,63.0,59,86,15.55,RU,1603715183
Marsh Harbour,26.54,-77.06,80.67,79,100,11.3,BS,1603715183
Polis,35.04,32.43,86.0,48,20,6.93,CY,1603715183
San Patricio,28.02,-97.52,78.8,78,90,13.87,US,1603715184
Pangnirtung,66.15,-65.71,14.83,92,98,5.21,CA,1603715184
Magadan,59.57,150.8,33.51,84,99,10.69,RU,1603715184
Tirumullaivāsal,11.23,79.83,82.94,73,16,10.83,IN,1603715185
Ségou,13.43,-6.22,96.4,9,100,9.08,ML,1603715185
Sosnogorsk,63.6,53.88,25.14,96,91,5.95,RU,1603715185
Port Hueneme,34.15,-119.2,62.6,14,90,23.04,US,1603715185
Havre-St-Pierre,50.23,-63.6,24.8,79,75,2.24,CA,1603715185
Ilulissat,69.22,-51.1,15.8,66,40,5.82,GL,1603715185
High Level,58.52,-117.14,22.82,82,100,1.7,CA,1603715185
Den Helder,52.96,4.76,54.0,76,75,23.04,NL,1603715185
Quatre Cocos,-20.21,57.76,78.8,65,40,14.99,MU,1603715245
Stornoway,58.21,-6.39,51.8,87,40,11.41,GB,1603715246
Port Hardy,50.7,-127.42,41.0,100,90,3.36,CA,1603715246
Murray Bridge,-35.12,139.27,54.0,97,100,1.01,AU,1603715246
Fort Smith,35.39,-94.4,48.99,93,90,6.93,US,1603715246
Kalmunai,7.42,81.82,84.27,68,25,7.43,LK,1603715246
Kuznechnoye,61.12,29.87,51.01,83,100,8.08,RU,1603715246
Olafsvik,64.89,-23.71,41.83,77,26,12.77,IS,1603715246
Sampit,-2.53,112.95,76.96,91,72,1.81,ID,1603715246
Ailigandí,9.23,-78.02,77.95,86,56,4.99,PA,1603715247
Liverpool,53.41,-2.98,55.4,76,75,24.16,GB,1603715247
Amposta,40.71,0.58,57.99,44,8,7.0,ES,1603715019
Langarūd,37.2,50.15,71.6,78,75,4.7,IR,1603715247
Voiron,45.36,5.59,53.01,74,100,3.0,FR,1603715247
Dourados,-22.22,-54.81,79.21,77,82,10.54,BR,1603714977
Requena,39.49,-1.1,59.0,40,0,7.0,ES,1603715247
Nānākuli,21.39,-158.15,73.4,88,1,3.36,US,1603715247
Lubango,-14.92,13.49,87.8,28,20,11.41,AO,1603715248
Eureka,40.8,-124.16,41.0,55,1,4.7,US,1603714979
Hegang,47.4,130.37,40.69,70,70,0.54,CN,1603715248
Kloulklubed,7.04,134.26,78.8,88,75,4.32,PW,1603715248
Rochegda,62.8,43.25,30.52,96,67,3.11,RU,1603715248
Bara,10.37,10.73,93.2,17,25,18.34,NG,1603715248
Tilichiki,60.47,166.1,30.67,98,100,5.64,RU,1603715248
Asahikawa,43.77,142.37,44.6,75,75,8.05,JP,1603715248
Los Llanos de Aridane,28.66,-17.92,75.2,53,20,13.87,ES,1603715248
Dingle,11.0,122.67,76.41,93,100,7.54,PH,1603715249
Katsuura,35.13,140.3,64.4,77,40,1.12,JP,1603715249
Buchanan,5.88,-10.05,82.85,74,43,6.44,LR,1603715249
Houston,29.76,-95.36,72.0,94,75,9.17,US,1603714733
Egvekinot,66.32,-179.17,18.81,95,9,5.82,RU,1603715249
Rodas,22.34,-80.56,75.2,100,100,2.24,CU,1603715249
Vangaindrano,-23.35,47.6,79.56,64,56,10.13,MG,1603715249
Chumikan,54.72,135.31,31.89,89,0,7.96,RU,1603715249
Quijingue,-10.75,-39.21,89.69,42,81,8.08,BR,1603715249
Yerofey Pavlovich,53.97,121.97,31.6,98,100,5.86,RU,1603715250
Tsimmerbude,54.67,20.13,57.2,82,90,11.18,RU,1603715250
Åmot,59.57,7.99,45.0,93,75,2.24,NO,1603715250
Sīrjān,29.45,55.68,74.71,15,0,4.23,IR,1603715250
Dalby,-27.18,151.27,64.0,66,49,7.36,AU,1603715250
Notsé,6.95,1.17,86.7,62,93,3.53,TG,1603715250
Chara,56.91,118.26,23.43,91,100,7.38,RU,1603715250
Agadez,19.75,10.25,84.63,14,0,7.61,NE,1603715251
Morro Bay,35.37,-120.85,57.0,96,25,4.92,US,1603715251
Pemberton,50.32,-122.8,34.36,80,92,1.1,CA,1603715251
Karasburg,-28.02,18.75,94.42,11,4,4.03,NA,1603715251
Viedma,-40.81,-63.0,61.0,50,0,1.99,AR,1603715251
Northam,51.03,-4.22,57.99,81,47,13.0,GB,1603715311
Aras,42.56,-2.36,57.0,58,40,20.8,ES,1603715311
Muros,42.78,-9.06,57.0,89,75,7.0,ES,1603715311
Kutum,14.2,24.67,83.84,16,3,3.36,SD,1603715311
Tabou,4.42,-7.35,80.82,83,86,8.16,CI,1603715311
Polunochnoye,60.87,60.42,23.56,96,100,11.16,RU,1603715311
Vityazevo,44.99,37.27,73.0,53,0,8.95,RU,1603715312
Rio Grande,-32.03,-52.1,72.0,89,100,12.88,BR,1603715039
Kribi,2.95,9.92,82.45,77,93,9.13,CM,1603715312
Saint George,37.1,-113.58,37.4,27,1,18.34,US,1603715277
Mogok,22.92,96.5,66.33,100,33,0.07,MM,1603715312
George Town,5.41,100.34,80.01,83,20,2.82,MY,1603715312
La Ronge,55.1,-105.28,17.6,67,75,6.93,CA,1603715312
Chiautla,19.53,-98.88,48.2,57,20,4.7,MX,1603715312
Broome,42.25,-75.83,46.99,100,90,8.05,US,1603715313
Gazojak,41.19,61.4,72.03,20,0,7.96,TM,1603715313
Methóni,36.82,21.7,75.99,41,20,8.05,GR,1603715313
Vila Velha,-20.33,-40.29,78.8,74,75,13.87,BR,1603715313
Coruripe,-10.13,-36.18,84.04,62,26,14.63,BR,1603715313
Farafangana,-22.82,47.83,77.86,66,23,11.65,MG,1603715313
Annau,37.89,58.52,80.6,15,41,16.11,TM,1603715313
Andenes,69.31,16.12,44.6,87,20,18.34,NO,1603715314
Ambāgarh Chauki,20.78,80.72,77.94,54,9,3.11,IN,1603715314
Champerico,14.3,-91.92,75.2,94,90,6.6,GT,1603715314
Port Augusta,-32.5,137.77,57.2,76,4,8.05,AU,1603715314
Stantsionno-Oyashinskiy,55.47,83.82,37.72,94,100,13.15,RU,1603715314
Ust'-Kalmanka,52.12,83.31,44.01,61,100,17.98,RU,1603715314
Nelson Bay,-32.72,152.15,60.01,100,90,17.22,AU,1603715314
Baykit,61.67,96.37,19.51,95,100,2.21,RU,1603715314
Puerto Escondido,15.85,-97.07,78.01,76,86,3.94,MX,1603715314
Kenai,60.55,-151.26,37.4,100,90,10.29,US,1603715314
Buenos Aires,-34.61,-58.38,64.4,59,0,8.05,AR,1603715135
Taltal,-25.4,-70.48,61.72,56,23,2.66,CL,1603715314
Kyaikto,17.3,97.02,80.17,87,46,5.06,MM,1603715314
Bonao,18.94,-70.41,79.0,1,99,1.88,DO,1603715315
Muli,2.92,73.57,83.16,73,96,9.44,MV,1603715315
Esperance,-33.87,121.9,73.4,31,18,12.75,AU,1603715315
Kuruman,-27.45,23.43,95.0,19,32,1.01,ZA,1603715315
Saint-Joseph,-21.37,55.62,75.2,78,75,4.7,RE,1603715315
Sandwick,60.0,-1.25,51.8,81,20,16.11,GB,1603715315
Punta Alta,-38.88,-62.07,62.8,38,0,12.88,AR,1603715315
Kroya,-7.63,109.25,66.0,87,100,7.27,ID,1603715316
San Policarpo,12.18,125.51,80.47,82,100,8.21,PH,1603715316
Martigny District,46.08,7.08,42.8,87,90,9.17,CH,1603715316
Karpathos,35.51,27.21,77.0,65,20,14.99,GR,1603715316
Helena,46.59,-112.04,3.0,77,1,3.36,US,1603715230
Pleasant Point,-44.27,171.13,48.0,96,100,4.65,NZ,1603715376
Chaman,30.92,66.45,68.45,18,0,3.85,PK,1603715376
Trelew,-43.25,-65.31,62.01,30,2,19.42,AR,1603715376
Gangāpur,26.48,76.72,83.37,22,0,3.56,IN,1603715376
Galesong,-5.32,119.37,77.0,94,20,2.24,ID,1603715377
Benguela,-12.58,13.41,82.4,65,20,13.87,AO,1603715377
Magdagachi,53.45,125.8,30.99,97,100,6.93,RU,1603715377
Thunder Bay,48.4,-89.32,26.6,73,90,5.82,CA,1603715377
Rugeley,52.76,-1.94,54.0,70,45,8.99,GB,1603715377
Ahipara,-35.17,173.17,58.77,93,56,3.15,NZ,1603715377
Cerfontaine,50.17,4.41,54.0,71,40,16.11,BE,1603715377
Yacuiba,-22.04,-63.68,69.8,77,90,11.41,BO,1603715377
Verkhoyansk,67.54,133.38,4.23,87,81,2.39,RU,1603715377
Seddon,-37.81,144.89,55.0,66,90,12.75,AU,1603715378
Maebaru-chūō,33.55,130.2,59.0,82,0,1.12,JP,1603715378
São Filipe,14.9,-24.5,83.14,65,100,11.1,CV,1603715378
Katherine,-14.47,132.27,77.0,83,99,8.05,AU,1603715378
Colac,-38.33,143.58,50.0,84,18,5.99,AU,1603715081
Bathsheba,13.22,-59.52,86.0,74,40,13.87,BB,1603715378
Estación Coahuila,32.19,-115.0,62.6,13,75,21.92,MX,1603715378
Yantal',56.85,105.25,19.36,93,81,3.42,RU,1603715378
Barcelos,41.54,-8.62,62.01,82,20,9.17,PT,1603715290
Toledo,39.83,-4.0,57.0,55,4,12.91,ES,1603715378
Itarema,-2.92,-39.92,83.32,67,93,14.52,BR,1603715378
Pimentel,-6.84,-79.93,62.38,88,79,9.1,PE,1603715378
Necochea,-38.55,-58.74,57.99,85,0,1.01,AR,1603715379
Ibotirama,-12.19,-43.22,88.0,51,92,3.58,BR,1603715379
Waipawa,-41.41,175.52,60.01,100,96,11.41,NZ,1603715379
Coyhaique,-45.58,-72.07,50.0,57,75,4.7,CL,1603715379
Srednekolymsk,67.45,153.68,10.63,91,0,6.82,RU,1603715379
Srandakan,-7.94,110.25,78.76,85,100,8.7,ID,1603715379
Oranjemund,-28.55,16.43,64.96,68,2,19.73,NA,1603715379
Phayao,19.25,100.25,75.24,77,8,2.13,TH,1603715379
Davila,18.47,120.58,82.4,78,90,5.82,PH,1603715379
Simao,22.79,100.97,67.35,77,81,2.17,CN,1603715379
Hīt,33.64,42.83,90.55,11,0,3.31,IQ,1603715379
Santa Cruz del Norte,23.15,-81.92,75.2,100,75,4.7,CU,1603715379
Roebourne,-20.78,117.13,73.2,77,5,16.13,AU,1603715380
Sioux Lookout,50.1,-91.92,19.4,85,40,4.7,CA,1603715380
Adrar,20.5,-10.07,95.22,10,56,8.23,MR,1603715380
Ananas,19.25,-71.96,72.09,82,100,2.06,HT,1603715380
Ouadda,8.08,22.4,88.05,43,7,4.07,CF,1603715380
Sabanagrande,10.79,-74.76,80.6,88,40,2.24,CO,1603715380
Sur,22.57,59.53,81.21,49,0,12.44,OM,1603715380
Seoul,37.57,126.98,57.2,67,1,3.36,KR,1603715327
Bonavista,48.65,-53.11,37.0,63,35,15.99,CA,1603715440
Bulata,9.86,122.4,80.87,81,100,17.2,PH,1603715441
Ketchikan,55.34,-131.65,48.2,100,90,9.17,US,1603715441
Nouadhibou,20.93,-17.03,84.2,39,97,20.8,MR,1603715441
Ahvāz,31.32,48.67,95.0,16,0,2.24,IR,1603715441
Broken Hill,-31.95,141.43,55.4,87,75,6.93,AU,1603715441
Ambikāpur,23.12,83.2,71.91,51,44,3.8,IN,1603715441
Pedernales,18.04,-71.74,77.0,94,20,1.14,DO,1603715441
Mossamedes,-15.2,12.15,77.0,65,75,11.41,AO,1603715442
Yangi Marg`ilon,40.43,71.72,62.6,29,100,4.7,UZ,1603715442
Keningau,5.34,116.16,78.8,83,20,6.93,MY,1603715369
Bowen,-20.02,148.23,69.8,94,90,4.7,AU,1603715442
Mórrope,-6.54,-80.01,66.63,75,69,6.82,PE,1603715442
Winnipeg,49.88,-97.15,23.0,73,90,10.29,CA,1603715163
Cabangahan,9.08,122.95,78.8,83,75,4.7,PH,1603715442
St. George's,12.06,-61.75,84.2,79,75,9.17,GD,1603715442
Panabá,21.28,-88.27,78.35,94,97,5.5,MX,1603715442
Littlehampton,50.81,-0.54,57.99,71,40,18.34,GB,1603715426
Dagua,3.66,-76.69,71.6,88,75,2.24,CO,1603715443
Hue,16.47,107.6,78.8,88,75,1.12,VN,1603715443
Benjamín Hill,30.17,-111.1,62.01,84,65,3.11,MX,1603715443
Alice Springs,-23.7,133.88,68.0,24,0,8.05,AU,1603715443
Lavrentiya,65.58,-171.0,31.08,92,69,6.58,RU,1603715443
Madimba,-10.4,40.33,71.6,78,75,20.8,TZ,1603715443
Leh,34.17,77.58,34.65,55,75,4.18,IN,1603715399
Vestmanna,62.16,-7.17,42.8,75,75,13.87,FO,1603715444
Aksha,50.28,113.29,24.35,78,0,9.22,RU,1603715444
Colesberg,-30.72,25.1,88.61,16,44,17.2,ZA,1603715444
Paamiut,61.99,-49.67,33.06,90,100,29.28,GL,1603715444
Dakar,14.69,-17.44,89.6,62,2,6.93,SN,1603715266
Henties Bay,-22.12,14.28,64.0,79,4,12.64,NA,1603715444
Tieling,42.29,123.84,53.67,74,85,7.56,CN,1603715444
Ruwi,23.6,58.55,84.2,58,0,9.17,OM,1603715445
Gandorhun,7.5,-11.83,91.45,54,100,1.54,SL,1603715445
Asheboro,35.71,-79.81,50.0,93,15,4.18,US,1603715445
Xam Nua,20.42,104.04,64.02,95,63,2.24,LA,1603715445
Gawler,-34.6,138.73,57.0,85,99,7.0,AU,1603715401
Wuwei,37.93,102.64,43.65,49,19,3.8,CN,1603715445
Kabare,-2.47,28.82,71.6,77,100,2.91,CD,1603715445
Alugan,12.22,125.48,79.68,84,100,7.9,PH,1603715446
Elizabeth City,36.29,-76.25,62.01,100,97,11.05,US,1603715446
Zhigalovo,54.81,105.16,18.16,91,0,2.21,RU,1603715446
Betsiamites,48.94,-68.65,30.2,92,75,9.75,CA,1603715446
Fayetteville,35.05,-78.88,55.0,93,90,9.17,US,1603715252
Jizan,17.33,42.67,95.0,50,20,16.11,SA,1603715447
Vestmannaeyjar,63.44,-20.27,44.6,87,40,16.11,IS,1603715507
Husavik,66.04,-17.34,39.2,80,90,6.93,IS,1603715507
Corowa,-36.03,146.38,55.99,65,59,9.95,AU,1603715507
